timestamp,gyro_rad[0],gyro_rad[1],gyro_rad[2],gyro_integral_dt,accelerometer_timestamp_relative,accelerometer_m_s2[0],accelerometer_m_s2[1],accelerometer_m_s2[2],accelerometer_integral_dt,magnetometer_timestamp_relative,magnetometer_ga[0],magnetometer_ga[1],magnetometer_ga[2],baro_timestamp_relative,baro_alt_meter,baro_temp_celcius
61027747,0.0223486,0.00734312,0.0109686,4000,0,-0.36825,-0.112081,-10.9702,4000,-9419,0.34368,8e-05,-0.04768,-758,5526.87,30.61
61031747,0.0229844,0.00628088,0.0103181,4000,0,-0.331809,-0.108718,-10.9731,4000,-3386,0.34096,-0.00168,-0.05096,-4758,5526.87,30.61
61035780,0.0235229,0.00575387,0.0107474,4033,0,-0.339467,-0.116403,-10.9665,4033,-7419,0.34096,-0.00168,-0.05096,-8791,5526.87,30.61
61039746,0.0244771,0.00584515,0.0106443,3966,0,-0.340039,-0.135036,-10.9927,3966,-1412,0.34232,0.00048,-0.0496,-1723,5526.28,30.61
61043746,0.0232029,0.00627889,0.0117064,4000,0,-0.33326,-0.131215,-10.9976,4000,-5412,0.34232,0.00048,-0.0496,-5723,5526.28,30.61
61047746,0.0229817,0.00649174,0.0116,4000,0,-0.34764,-0.121601,-10.9879,4000,-9412,0.34232,0.00048,-0.0496,-9723,5526.28,30.61
61051746,0.0240484,0.00744954,0.0106422,4000,0,-0.344359,-0.111478,-10.9785,4000,-3384,0.34016,-0.00048,-0.05176,-2754,5526.87,30.61
61055747,0.0239499,0.00788217,0.0103289,4001,0,-0.332816,-0.124498,-10.9654,4001,-7385,0.34016,-0.00048,-0.05176,-6755,5526.87,30.61
61059746,0.0230971,0.00638531,0.00989373,3999,0,-0.33131,-0.129217,-10.9745,3999,-1419,0.34168,-0.00024,-0.04712,-10754,5526.87,30.61
61063746,0.0233059,0.00702625,0.0105358,4000,0,-0.339469,-0.144155,-10.9621,4000,-5419,0.34168,-0.00024,-0.04712,-14754,5526.87,30.61
61067746,0.0234128,0.00638531,0.0096844,4000,0,-0.34798,-0.126323,-10.9465,4000,-9419,0.34168,-0.00024,-0.04712,-18754,5526.87,30.61
61087746,0.0235193,0.00702944,0.00957797,4000,0,-0.324729,-0.112452,-10.9586,4000,-9419,0.34424,-0.00088,-0.04768,-5725,5526.87,30.6
61091775,0.0233033,0.00670703,0.00968747,4029,0,-0.330905,-0.132619,-10.9692,4029,-3448,0.34112,-0.0004,-0.05088,-9754,5526.87,30.6
61095747,0.0226674,0.00777012,0.0106422,3972,0,-0.341886,-0.128324,-10.9669,3972,-7420,0.34112,-0.0004,-0.05088,-2741,5528.04,30.6
61099782,0.024049,0.00712988,0.0106422,4035,0,-0.364877,-0.138325,-10.9789,4035,-1455,0.34424,-0.00072,-0.04696,-6776,5528.04,30.6
61103746,0.0235154,0.00638532,0.0100008,3964,0,-0.358605,-0.110132,-10.9975,3964,-5419,0.34424,-0.00072,-0.04696,-10740,5528.04,30.6
61107746,0.0234128,0.00638531,0.00989312,4000,0,-0.368614,-0.105787,-10.9837,4000,-9419,0.34424,-0.00072,-0.04696,-14740,5528.04,30.6
61111795,0.0243718,0.0072327,0.0106422,4049,0,-0.381536,-0.122101,-10.9497,4049,-3468,0.34208,-0.00056,-0.05,-18789,5528.04,30.6
61115746,0.0243693,0.0057425,0.0106422,3951,0,-0.344627,-0.123502,-10.9327,3951,-7419,0.34208,-0.00056,-0.05,-749,5527.16,30.6
61119770,0.0236247,0.00638532,0.0101162,4024,0,-0.338055,-0.138921,-10.9347,4024,-1443,0.3444,-0.00056,-0.04304,-4773,5527.16,30.6
61123746,0.0234128,0.00702477,0.010324,3976,0,-0.319365,-0.137912,-10.9463,3976,-5419,0.3444,-0.00056,-0.04304,-8749,5527.16,30.6
61127746,0.0237326,0.00744953,0.00989378,4000,0,-0.343774,-0.133564,-10.9773,4000,-9419,0.3444,-0.00056,-0.04304,-1688,5527.02,30.6
61131763,0.0227754,0.00744953,0.0111714,4017,0,-0.36632,-0.156087,-11.0028,4017,-3436,0.34376,-0.00064,-0.0492,-5705,5527.02,30.6
61136583,0.0227959,0.00665249,0.0104615,4820,0,-0.354643,-0.127204,-10.995,4820,-8256,0.34376,-0.00064,-0.0492,-10525,5527.02,30.6
61140546,0.0236291,0.00692386,0.00989377,3963,0,-0.341847,-0.123967,-10.9985,3963,-2219,0.346,-0.00112,-0.04528,-3544,5524.82,30.6
61145358,0.0232335,0.00638533,0.0110821,4812,0,-0.335994,-0.138034,-10.9866,4812,-7031,0.346,-0.00112,-0.04528,-8356,5524.82,30.6
61150206,0.0238584,0.00603673,0.0106422,4848,0,-0.325611,-0.122758,-10.9682,4848,-1879,0.34296,-0.00192,-0.04896,-13204,5524.82,30.6
61154181,0.0226538,0.00638532,0.0100991,3975,0,-0.332293,-0.130046,-10.9649,3975,-5854,0.34296,-0.00192,-0.04896,-17179,5524.82,30.6
61158168,0.0228883,0.00713857,0.00979446,3987,0,-0.34832,-0.131043,-10.9717,3987,159,0.34256,-0.00224,-0.04472,-21166,5524.82,30.6
61162168,0.0241515,0.00671083,0.0106422,4000,0,-0.342364,-0.116386,-10.9707,4000,-3841,0.34256,-0.00224,-0.04472,-3139,5524.38,30.6
61166148,0.024373,0.00691449,0.0106422,3980,0,-0.345304,-0.135591,-10.9563,3980,-7821,0.34256,-0.00224,-0.04472,-7119,5524.38,30.6
61170174,0.024477,0.00703096,0.0106422,4026,0,-0.365748,-0.146469,-10.9382,4026,-1847,0.344,-0.00232,-0.04904,-153,5526.72,30.6
61174168,0.0237251,0.00702254,0.0106422,3994,0,-0.324485,-0.121088,-10.9574,3994,-5841,0.344,-0.00232,-0.04904,-4147,5526.72,30.6
61178168,0.0241635,0.00669887,0.0108521,4000,0,-0.32807,-0.108193,-10.9913,4000,159,0.34504,-0.00112,-0.0436,-8147,5526.72,30.6
61182168,0.0244771,0.00638531,0.0111802,4000,0,-0.340006,-0.108657,-10.9678,4000,-3841,0.34504,-0.00112,-0.0436,-1182,5525.7,30.6
61186157,0.0237303,0.00660022,0.011173,3989,0,-0.325569,-0.108705,-10.989,3989,-7830,0.34504,-0.00112,-0.0436,-5171,5525.7,30.6
61190199,0.0234128,0.00670271,0.0106422,4042,0,-0.312763,-0.0972797,-10.9873,4042,-1872,0.34424,-0.00152,-0.0464,-9213,5525.7,30.6
61194190,0.0226545,0.00638532,0.0104233,3991,0,-0.329561,-0.111745,-10.9747,3991,-5863,0.34424,-0.00152,-0.0464,-13204,5525.7,30.6
61198182,0.0233121,0.00638531,0.0107595,3992,0,-0.346327,-0.122584,-10.9609,3992,145,0.3444,-0.0028,-0.04056,-17196,5525.7,30.6
61202168,0.0229862,0.00584974,0.0111652,3986,0,-0.32686,-0.140893,-10.9545,3986,-3841,0.3444,-0.0028,-0.04056,-21182,5525.7,30.6
61206177,0.0236293,0.00489425,0.0114899,4009,0,-0.32177,-0.149369,-10.9674,4009,-7850,0.3444,-0.0028,-0.04056,-3191,5524.82,30.6
61210176,0.024477,0.00649989,0.0110639,3999,0,-0.33539,-0.136506,-10.9768,3999,-1841,0.3432,-0.00096,-0.04704,-7190,5524.82,30.6
61214180,0.0235152,0.00744953,0.0108564,4004,0,-0.348135,-0.132173,-10.9529,4004,-5845,0.3432,-0.00096,-0.04704,-157,5525.26,30.6
61218169,0.0234128,0.00690997,0.0111668,3989,0,-0.343826,-0.120653,-10.9405,3989,-9834,0.3432,-0.00096,-0.04704,-4146,5525.26,30.6
61222152,0.0234128,0.00691635,0.0102128,3983,0,-0.32652,-0.136537,-10.9382,3983,-3796,0.3424,-0.00256,-0.04128,-8129,5525.26,30.6
61226195,0.0238465,0.00681096,0.0111682,4043,0,-0.338092,-0.121093,-10.93,4043,-7839,0.3424,-0.00256,-0.04128,-1198,5525.99,30.6
61230168,0.0244771,0.00744954,0.0106422,3973,0,-0.333213,-0.115922,-10.9365,3973,-1836,0.34392,-0.00168,-0.04752,-5171,5525.99,30.6
61234193,0.0235157,0.00648817,0.010216,4025,0,-0.333787,-0.113399,-10.9666,4025,-5861,0.34392,-0.00168,-0.04752,-9196,5525.99,30.6
61238182,0.0243765,0.00638531,0.0101212,3989,0,-0.338592,-0.120367,-10.9442,3989,-9850,0.34392,-0.00168,-0.04752,-13185,5525.99,30.6
61242185,0.0235144,0.00660319,0.0101046,4003,0,-0.340934,-0.139365,-10.9467,4003,-3782,0.34496,-0.00296,-0.04304,-17188,5525.99,30.6
61246194,0.0239565,0.00670507,0.00999753,4009,0,-0.351091,-0.122909,-10.9509,4009,-7791,0.34496,-0.00296,-0.04304,-21197,5525.99,30.6
61250190,0.0242581,0.00690517,0.0103353,3996,0,-0.34657,-0.122748,-10.9831,3996,-1838,0.34464,-0.0012,-0.04632,-3009,5526.72,30.6
61254183,0.0239557,0.00660347,0.0106422,3993,0,-0.338104,-0.131584,-10.9392,3993,-5831,0.34464,-0.0012,-0.04632,-7002,5526.72,30.6
61258168,0.0254394,0.00766318,0.0106422,3985,0,-0.330789,-0.116367,-10.9712,3985,168,0.34512,-0.0028,-0.04256,-134,5524.23,30.6
61262168,0.0243676,0.00648882,0.0101073,4000,0,-0.345836,-0.128368,-10.9736,4000,-3832,0.34512,-0.0028,-0.04256,-4134,5524.23,30.6
61266168,0.0234128,0.00639117,0.00957798,4000,0,-0.334604,-0.144131,-10.9528,4000,-7832,0.34512,-0.0028,-0.04256,-8134,5524.23,30.6
61270168,0.0228836,0.00670617,0.010537,4000,0,-0.33137,-0.153693,-10.965,4000,-1796,0.34448,-0.00384,-0.0468,-1139,5526.43,30.6
61274154,0.0236275,0.00670878,0.0106422,3986,0,-0.339047,-0.135993,-10.9865,3986,-5782,0.34448,-0.00384,-0.0468,-5125,5526.43,30.6
61278192,0.024477,0.00744954,0.0113851,4038,0,-0.338973,-0.139339,-10.9749,4038,170,0.34608,-0.00336,-0.044,-9163,5526.43,30.6
61282168,0.0231868,0.00616544,0.0101039,3976,0,-0.327044,-0.130594,-10.9601,3976,-3806,0.34608,-0.00336,-0.044,-13139,5526.43,30.6
61286168,0.0233092,0.00638531,0.0105386,4000,0,-0.334735,-0.117341,-10.9492,4000,-7806,0.34608,-0.00336,-0.044,-17139,5526.43,30.6
61290168,0.0229895,0.00638532,0.00968586,4000,0,-0.362895,-0.113572,-10.9683,4000,-1827,0.34552,-0.00384,-0.04664,-21139,5526.43,30.6
61294160,0.0234128,0.00713549,0.0103282,3992,0,-0.354272,-0.135584,-10.9634,3992,-5819,0.34552,-0.00384,-0.04664,-3162,5527.46,30.61
61298168,0.0234128,0.00648967,0.0106422,4008,0,-0.340416,-0.128758,-10.9568,4008,173,0.346,-0.0024,-0.04048,-7170,5527.46,30.61
61302181,0.0241647,0.00638531,0.0111795,4013,0,-0.363586,-0.12544,-10.9699,4013,-3840,0.346,-0.0024,-0.04048,-157,5525.99,30.61
61306190,0.0244771,0.0061695,0.0117064,4009,0,-0.331036,-0.11002,-10.9937,4009,-7849,0.346,-0.0024,-0.04048,-4166,5525.99,30.61
61310168,0.0237228,0.00532109,0.0117064,3978,0,-0.322839,-0.115022,-10.9805,3978,-1807,0.344,-0.00168,-0.0436,-8144,5525.99,30.61
61314194,0.0234128,0.0060738,0.0117064,4026,0,-0.348776,-0.123884,-10.95,4026,-5833,0.344,-0.00168,-0.0436,-1208,5528.48,30.61
61318203,0.0243772,0.00638532,0.0117064,4009,0,-0.342251,-0.109206,-10.9617,4009,124,0.34456,-0.00296,-0.04056,-5217,5528.48,30.61
61322168,0.0236199,0.00670862,0.0109509,3965,0,-0.33612,-0.111613,-10.9617,3965,-3841,0.34456,-0.00296,-0.04056,-9182,5528.48,30.61
61326168,0.0250125,0.00638532,0.0106422,4000,0,-0.346222,-0.132708,-10.9663,4000,-7841,0.34456,-0.00296,-0.04056,-13182,5528.48,30.61
61330177,0.0247936,0.00659516,0.0106422,4009,0,-0.337615,-0.143156,-10.9392,4009,-1850,0.34448,-0.0024,-0.04488,-17191,5528.48,30.61
61334165,0.024045,0.00638531,0.0106422,3988,0,-0.342378,-0.136428,-10.9554,3988,-5838,0.34448,-0.0024,-0.04488,-21179,5528.48,30.61
61338184,0.0242596,0.00702282,0.00989375,4019,0,-0.327069,-0.125384,-10.9539,4019,143,0.34464,-0.0028,-0.04104,-2757,5525.84,30.62
61342168,0.0238442,0.00638531,0.0104397,3984,0,-0.336704,-0.116767,-10.9501,3984,-3841,0.34464,-0.0028,-0.04104,-6741,5525.84,30.62
61346175,0.024367,0.00670402,0.0117064,4007,0,-0.356319,-0.121666,-10.972,4007,-7848,0.34464,-0.0028,-0.04104,-154,5524.96,30.62
61350169,0.0238453,0.00617602,0.0117064,3994,0,-0.348949,-0.12404,-10.9927,3994,-1842,0.34408,-0.00352,-0.0432,-4148,5524.96,30.62
61354184,0.023729,0.00638532,0.0112765,4015,0,-0.332754,-0.131726,-10.972,4015,-5857,0.34408,-0.00352,-0.0432,-8163,5524.96,30.62
61358187,0.0234128,0.0071341,0.0106422,4003,0,-0.319074,-0.131608,-10.9714,4003,140,0.34536,-0.00352,-0.04112,-1190,5524.38,30.62
61362190,0.0239523,0.007235,0.0106422,4003,0,-0.342915,-0.118257,-10.961,4003,-3863,0.34536,-0.00352,-0.04112,-5193,5524.38,30.62
61366168,0.0240431,0.00638532,0.0102083,3978,0,-0.355331,-0.123641,-10.9304,3978,-7841,0.34536,-0.00352,-0.04112,-9171,5524.38,30.62
61370168,0.023944,0.0071336,0.00936647,4000,0,-0.351981,-0.165744,-10.9444,4000,-1839,0.34664,-0.0028,-0.04496,-13171,5524.38,30.62
61374194,0.0240445,0.00733745,0.00894634,4026,0,-0.346739,-0.164179,-10.9713,4026,-5865,0.34664,-0.0028,-0.04496,-17197,5524.38,30.62
61378170,0.0234128,0.00734715,0.00968825,3976,0,-0.356778,-0.148341,-10.9793,3976,-9841,0.34664,-0.0028,-0.04496,-21173,5524.38,30.62
61382168,0.0224519,0.00669822,0.0106422,3998,0,-0.3524,-0.131029,-10.9702,3998,-3841,0.34456,-0.00232,-0.04264,-3182,5527.46,30.61
61386168,0.0233092,0.00681393,0.0113929,4000,0,-0.337532,-0.101928,-10.9621,4000,-7841,0.34456,-0.00232,-0.04264,-7182,5527.46,30.61
61390949,0.0243905,0.00727113,0.011528,4781,0,-0.331217,-0.112943,-10.9674,4781,-2622,0.34528,-0.0044,-0.04256,-925,5523.94,30.61
61394970,0.0243744,0.00648801,0.0106422,4021,0,-0.342417,-0.119237,-10.9818,4021,-6643,0.34528,-0.0044,-0.04256,-4946,5523.94,30.61
61398946,0.0240552,0.00734542,0.0106422,3976,0,-0.333234,-0.126425,-10.9798,3976,-619,0.34536,-0.00296,-0.04176,-8922,5523.94,30.61
61402946,0.024477,0.00638532,0.0106422,4000,0,-0.346157,-0.129596,-10.9555,4000,-4619,0.34536,-0.00296,-0.04176,-1950,5523.35,30.61
61406946,0.0238432,0.00734284,0.0115997,4000,0,-0.342859,-0.156696,-10.9806,4000,-8619,0.34536,-0.00296,-0.04176,-5950,5523.35,30.61
61410946,0.0241567,0.00734604,0.0113871,4000,0,-0.346702,-0.129784,-10.9692,4000,-2619,0.34648,-0.0024,-0.03984,-9950,5523.35,30.61
61414964,0.0251156,0.00606563,0.0107481,4018,0,-0.327021,-0.130233,-11.0004,4018,-6637,0.34648,-0.0024,-0.03984,-13968,5523.35,30.61
61418978,0.0238323,0.00586182,0.0106422,4014,0,-0.340929,-0.149918,-10.9615,4014,-651,0.34624,-0.00376,-0.0404,-17982,5523.35,30.61
61422946,0.0239452,0.0053211,0.0096811,3968,0,-0.343289,-0.141259,-10.966,3968,-4619,0.34624,-0.00376,-0.0404,-21950,5523.35,30.61
61426947,0.0235164,0.005856,0.0105357,4001,0,-0.358726,-0.142695,-10.9813,4001,-8620,0.34624,-0.00376,-0.0404,-2448,5523.64,30.61
61430946,0.024477,0.00563751,0.0109586,3999,0,-0.344236,-0.138903,-10.9487,3999,-2619,0.34488,-0.00328,-0.03976,-6447,5523.64,30.61
61434946,0.0235206,0.00638532,0.0117064,4000,0,-0.365342,-0.130731,-10.9352,4000,-6619,0.34488,-0.00328,-0.03976,-10447,5523.64,30.61
61438983,0.023736,0.00638532,0.0117064,4037,0,-0.364859,-0.12832,-10.974,4037,-656,0.34792,-0.00592,-0.04064,-3579,5525.55,30.61
61442946,0.0243747,0.00702659,0.0110652,3963,0,-0.361133,-0.12103,-11.0004,3963,-4619,0.34792,-0.00592,-0.04064,-7542,5525.55,30.61
61446946,0.0234128,0.00744954,0.0106422,4000,0,-0.339408,-0.142239,-10.9923,4000,-8619,0.34792,-0.00592,-0.04064,-958,5524.82,30.61
61450947,0.0239477,0.00681103,0.0111771,4001,0,-0.354354,-0.138864,-10.9841,4001,-2582,0.3448,-0.00392,-0.04192,-4959,5524.82,30.61
61454957,0.0237342,0.00638531,0.0107469,4010,0,-0.355743,-0.130707,-10.9722,4010,-6592,0.3448,-0.00392,-0.04192,-8969,5524.82,30.61
61458946,0.0243718,0.00670066,0.0116045,3989,0,-0.349615,-0.12314,-10.9879,3989,-619,0.34832,-0.00432,-0.04072,-12958,5524.82,30.61
61462947,0.0253302,0.00744953,0.0109598,4001,0,-0.330895,-0.10343,-11.0215,4001,-4620,0.34832,-0.00432,-0.04072,-16959,5524.82,30.61
61466946,0.0241549,0.00744954,0.0107486,3999,0,-0.333247,-0.108218,-11.0033,3999,-8619,0.34832,-0.00432,-0.04072,-20958,5524.82,30.61
61470946,0.0241651,0.00649173,0.0103187,4000,0,-0.34378,-0.114908,-10.9716,4000,-2583,0.34632,-0.00448,-0.03984,-2960,5526.87,30.61
61474977,0.0234128,0.00628262,0.0106422,4031,0,-0.347128,-0.118781,-10.9822,4031,-6614,0.34632,-0.00448,-0.03984,-6991,5526.87,30.61
61478946,0.0234128,0.00628088,0.0106422,3969,0,-0.338016,-0.114467,-10.9783,3969,-618,0.34784,-0.00464,-0.03736,-10960,5526.87,30.61
61482946,0.0234128,0.00638532,0.0106422,4000,0,-0.332794,-0.121663,-10.9707,4000,-4618,0.34784,-0.00464,-0.03736,-3145,5525.99,30.61
61486946,0.0227743,0.00638531,0.0106422,4000,0,-0.356679,-0.100585,-10.9576,4000,-8618,0.34784,-0.00464,-0.03736,-7145,5525.99,30.61
61490946,0.0235187,0.00638531,0.0112802,4000,0,-0.359623,-0.112014,-10.9827,4000,-2619,0.34592,-0.00528,-0.03824,-958,5526.72,30.61
61494946,0.0235163,0.00638532,0.0117064,4000,0,-0.34527,-0.13643,-10.9516,4000,-6619,0.34592,-0.00528,-0.03824,-4958,5526.72,30.61
61498946,0.0241607,0.00606897,0.0117064,4000,0,-0.349527,-0.151379,-10.9462,4000,-619,0.3464,-0.00472,-0.03776,-8958,5526.72,30.61
61502978,0.0234128,0.00627975,0.0110644,4032,0,-0.341346,-0.134083,-10.9683,4032,-4651,0.3464,-0.00472,-0.03776,-12990,5526.72,30.61
61506946,0.0233109,0.00638532,0.00968096,3968,0,-0.33472,-0.15041,-10.9708,3968,-8619,0.3464,-0.00472,-0.03776,-16958,5526.72,30.61
61510946,0.0229858,0.00702252,0.0105356,4000,0,-0.334708,-0.147578,-10.9841,4000,-2619,0.3456,-0.00504,-0.03928,-20958,5526.72,30.61
61514946,0.0234128,0.00649174,0.0106422,4000,0,-0.339485,-0.108244,-11.0144,4000,-6619,0.3456,-0.00504,-0.03928,-2753,5525.4,30.62
61518946,0.0234128,0.00638532,0.0106422,4000,0,-0.354299,-0.108135,-10.9804,4000,-619,0.348,-0.00632,-0.0384,-6753,5525.4,30.62
61522968,0.0234128,0.00638532,0.0106422,4022,0,-0.344817,-0.129255,-10.9577,4022,-4641,0.348,-0.00632,-0.0384,-10775,5525.4,30.62
61526946,0.0237309,0.00584317,0.0112841,3978,0,-0.355794,-0.130708,-11.0024,3978,-8619,0.348,-0.00632,-0.0384,-3479,5525.4,30.62
61530946,0.0234128,0.00735017,0.0113953,4000,0,-0.36162,-0.130828,-10.9966,4000,-2619,0.3452,-0.00512,-0.0376,-7479,5525.4,30.62
61534946,0.0234128,0.00638532,0.0106422,4000,0,-0.338993,-0.129247,-11.0033,4000,-6619,0.3452,-0.00512,-0.0376,-949,5525.4,30.62
61538946,0.0234128,0.00733726,0.0106422,4000,0,-0.348556,-0.131786,-10.9681,4000,-618,0.34784,-0.00464,-0.03672,-4949,5525.4,30.62
61542965,0.0225648,0.00649614,0.0112759,4019,0,-0.357709,-0.113034,-10.9635,4019,-4637,0.34784,-0.00464,-0.03672,-8968,5525.4,30.62
61546946,0.0237309,0.00638532,0.0105382,3981,0,-0.339958,-0.104386,-10.965,3981,-8618,0.34784,-0.00464,-0.03672,-12949,5525.4,30.62
61550946,0.0234128,0.00585401,0.00957797,4000,0,-0.323679,-0.109535,-10.9607,4000,-2619,0.3464,-0.00664,-0.036,-16949,5525.4,30.62
61554946,0.0234128,0.00638531,0.00999315,4000,0,-0.33988,-0.135983,-10.9654,4000,-6619,0.3464,-0.00664,-0.036,-20949,5525.4,30.62
61558946,0.024369,0.00638532,0.0117064,4000,0,-0.350596,-0.125949,-10.9721,4000,-619,0.34808,-0.00712,-0.03424,-2960,5526.58,30.62
61562969,0.0236214,0.00628083,0.0114917,4023,0,-0.338037,-0.135049,-10.9563,4023,-4642,0.34808,-0.00712,-0.03424,-6983,5526.58,30.62
61566946,0.0233087,0.00628137,0.0112842,3977,0,-0.358661,-0.133552,-10.942,3977,-8619,0.34808,-0.00712,-0.03424,-10960,5526.58,30.62
61570947,0.0223486,0.00764729,0.0102102,4001,0,-0.349896,-0.120922,-10.9396,4001,-2620,0.34456,-0.00616,-0.03528,-2835,5526.72,30.62
61574946,0.0226594,0.00724503,0.0109663,3999,0,-0.367342,-0.113361,-10.9458,3999,-6619,0.34456,-0.00616,-0.03528,-6834,5526.72,30.62
61578946,0.0240543,0.00734311,0.0106422,4000,0,-0.350032,-0.132665,-10.9329,4000,-619,0.34784,-0.00576,-0.03632,-10834,5526.72,30.62
61582989,0.0240559,0.00659866,0.0111772,4043,0,-0.358221,-0.138902,-10.9439,4043,-4662,0.34784,-0.00576,-0.03632,-3600,5528.48,30.62
61586968,0.024477,0.00744954,0.0106422,3979,0,-0.369789,-0.141286,-10.945,3979,-8641,0.34784,-0.00576,-0.03632,-7579,5528.48,30.62
61590946,0.024477,0.00691034,0.01129,3978,0,-0.344633,-0.131197,-10.9541,3978,-2619,0.34384,-0.00592,-0.04008,-11557,5528.48,30.62
61594946,0.0244771,0.00744954,0.0106422,4000,0,-0.355844,-0.122124,-10.9385,4000,-6619,0.34384,-0.00592,-0.04008,-15557,5528.48,30.62
61598946,0.024477,0.00744954,0.0106422,4000,0,-0.33995,-0.115879,-10.9928,4000,-619,0.34912,-0.00464,-0.03536,-19557,5528.48,30.62
61602962,0.0238384,0.00776899,0.0107474,4016,0,-0.351961,-0.118263,-10.964,4016,-4635,0.34912,-0.00464,-0.03536,-1974,5526.58,30.63
61606980,0.0244771,0.00787385,0.0115989,4018,0,-0.346227,-0.134629,-10.9501,4018,-8653,0.34912,-0.00464,-0.03536,-5992,5526.58,30.63
61610946,0.0247953,0.00776698,0.0106422,3966,0,-0.346714,-0.154236,-10.9314,3966,-2619,0.34632,-0.00512,-0.03976,-9958,5526.58,30.63
61614946,0.0244842,0.006811,0.0106422,4000,0,-0.337582,-0.139983,-10.952,4000,-6619,0.34632,-0.00512,-0.03976,-2960,5526.58,30.63
61618946,0.0243705,0.00648828,0.0106422,4000,0,-0.333783,-0.103895,-10.9526,4000,-619,0.34776,-0.00448,-0.0348,-6960,5526.58,30.63
61622978,0.0238355,0.00734264,0.0106422,4032,0,-0.337121,-0.116405,-10.9511,4032,-4651,0.34776,-0.00448,-0.0348,-10992,5526.58,30.63
61626946,0.0237304,0.00670689,0.0106422,3968,0,-0.335191,-0.137453,-10.9645,3968,-8619,0.34776,-0.00448,-0.0348,-2437,5525.84,30.63
61630946,0.0237261,0.00702199,0.0097867,4000,0,-0.321337,-0.11437,-10.9694,4000,-2619,0.3452,-0.00408,-0.04104,-6437,5525.84,30.63
61634946,0.024477,0.00744954,0.0106422,4000,0,-0.324638,-0.122144,-10.9559,4000,-6619,0.3452,-0.00408,-0.04104,-10437,5525.84,30.63
61638946,0.0246957,0.00659829,0.0103231,4000,0,-0.322753,-0.119656,-10.9539,4000,-619,0.34632,-0.00496,-0.03816,-14437,5525.84,30.63
61642946,0.023726,0.00734924,0.0106422,4000,0,-0.341441,-0.116331,-10.9569,4000,-4619,0.34632,-0.00496,-0.03816,-18437,5525.84,30.63
61646946,0.0243736,0.00670165,0.0103217,4000,0,-0.329497,-0.126411,-10.9452,4000,-8619,0.34632,-0.00496,-0.03816,-948,5525.55,30.62
61650946,0.0225552,0.00734937,0.0106422,4000,0,-0.325076,-0.118752,-10.9712,4000,-2619,0.34544,-0.00512,-0.04192,-4948,5525.55,30.62
61654946,0.0235117,0.00638532,0.0097847,4000,0,-0.347071,-0.118246,-10.9692,4000,-6619,0.34544,-0.00512,-0.04192,-8948,5525.55,30.62
61658946,0.0238429,0.00638532,0.0103302,4000,0,-0.357314,-0.115401,-10.9851,4000,-594,0.34632,-0.00352,-0.038,-1947,5527.75,30.62
61663774,0.0235899,0.00736137,0.010554,4828,0,-0.34155,-0.126907,-10.9754,4828,-5422,0.34632,-0.00352,-0.038,-6775,5527.75,30.62
61667746,0.0245842,0.00744954,0.0106422,3972,0,-0.342866,-0.125938,-10.988,3972,-9394,0.34632,-0.00352,-0.038,-10747,5527.75,30.62
61671746,0.0246899,0.00691981,0.0114936,4000,0,-0.354353,-0.11822,-10.9823,4000,-3419,0.34592,-0.00368,-0.04096,-3558,5525.55,30.62
61675746,0.0243706,0.00638532,0.0113921,4000,0,-0.3438,-0.131674,-10.9554,4000,-7419,0.34592,-0.00368,-0.04096,-7558,5525.55,30.62
61679746,0.0230948,0.00638531,0.0106422,4000,0,-0.35626,-0.13308,-10.9186,4000,-1383,0.3456,-0.0036,-0.03784,-11558,5525.55,30.62
61683796,0.0228844,0.00638532,0.00978819,4050,0,-0.353429,-0.14932,-10.9575,4050,-5433,0.3456,-0.0036,-0.03784,-15608,5525.55,30.62
61687768,0.0234128,0.00638531,0.0101168,3972,0,-0.362519,-0.135448,-10.9865,3972,-9405,0.3456,-0.0036,-0.03784,-19580,5525.55,30.62
61691746,0.0234128,0.00638532,0.00978905,3978,0,-0.352442,-0.119177,-10.9894,3978,-3419,0.34584,-0.0048,-0.04104,-1748,5527.02,30.63
61695746,0.0237282,0.00596482,0.00957797,4000,0,-0.350488,-0.124989,-10.9708,4000,-7419,0.34584,-0.0048,-0.04104,-5748,5527.02,30.63
61699746,0.0244771,0.00638531,0.0101006,4000,0,-0.355316,-0.110068,-10.9592,4000,-1371,0.34712,-0.00512,-0.03808,-9748,5527.02,30.63
61703763,0.02501,0.0069169,0.00989802,4017,0,-0.342355,-0.130258,-10.9588,4017,-5388,0.34712,-0.00512,-0.03808,-2764,5527.9,30.63
61707780,0.0239411,0.00712553,0.0105317,4017,0,-0.344435,-0.128306,-10.9693,4017,-9405,0.34712,-0.00512,-0.03808,-6781,5527.9,30.63
61712546,0.0237701,0.00700808,0.0104674,4766,0,-0.359101,-0.140851,-10.9534,4766,-4219,0.34568,-0.00336,-0.04432,-548,5526.72,30.63
61717355,0.024477,0.00647384,0.0108193,4809,0,-0.351962,-0.159217,-10.9491,4809,-9028,0.34568,-0.00336,-0.04432,-5357,5526.72,30.63
61721378,0.0239395,0.00638531,0.0106422,4023,0,-0.357262,-0.150755,-10.9327,4023,-3051,0.34624,-0.00432,-0.0392,-9380,5526.72,30.63
61725346,0.0234128,0.00691863,0.0106422,3968,0,-0.361453,-0.121633,-10.9646,3968,-7019,0.34624,-0.00432,-0.0392,-13348,5526.72,30.63
61729346,0.0234128,0.00691729,0.0104292,4000,0,-0.332859,-0.122105,-10.9789,4000,-1019,0.34544,-0.00416,-0.04256,-17348,5526.72,30.63
61733346,0.0239448,0.00649467,0.0106422,4000,0,-0.343739,-0.123516,-10.9535,4000,-5019,0.34544,-0.00416,-0.04256,-21348,5526.72,30.63
61737368,0.0237333,0.00680588,0.0111771,4022,0,-0.344778,-0.124974,-10.9406,4022,-9041,0.34544,-0.00416,-0.04256,-3370,5524.52,30.63
61741379,0.0234055,0.00713326,0.0112885,4011,0,-0.343761,-0.138412,-10.9689,4011,-3051,0.34568,-0.0028,-0.03936,-7381,5524.52,30.63
61745349,0.0230983,0.00723616,0.0107467,3970,0,-0.341885,-0.138859,-10.9663,3970,-7021,0.34568,-0.0028,-0.03936,-350,5525.99,30.63
61749346,0.0234128,0.00691636,0.0106422,3997,0,-0.34188,-0.13069,-10.9692,3997,-1019,0.34384,-0.00336,-0.04296,-4347,5525.99,30.63
61753346,0.0234128,0.00744954,0.0106422,4000,0,-0.354769,-0.144117,-10.9841,4000,-5019,0.34384,-0.00336,-0.04296,-8347,5525.99,30.63
61757346,0.0250996,0.00649759,0.0109572,4000,0,-0.335313,-0.124616,-10.9607,4000,-9019,0.34384,-0.00336,-0.04296,-1313,5526.58,30.63
61761346,0.0245899,0.00712388,0.0106422,4000,0,-0.356621,-0.117316,-10.9697,4000,-3019,0.34488,-0.00208,-0.03872,-5313,5526.58,30.63
61765346,0.0234128,0.00670751,0.0103229,4000,0,-0.339085,-0.133544,-10.9521,4000,-7019,0.34488,-0.00208,-0.03872,-9313,5526.58,30.63
61769346,0.0239449,0.00638532,0.0106422,4000,0,-0.333739,-0.151287,-10.9563,4000,-1019,0.34464,-0.00352,-0.04432,-13313,5526.58,30.63
61773346,0.0237352,0.00617673,0.0106422,4000,0,-0.349881,-0.146602,-10.9998,4000,-5019,0.34464,-0.00352,-0.04432,-17313,5526.58,30.63
61777346,0.0236257,0.0060578,0.010855,4000,0,-0.3673,-0.11507,-11.0114,4000,-9019,0.34464,-0.00352,-0.04432,-21313,5526.58,30.63
61781346,0.024477,0.00638532,0.0117064,4000,0,-0.375866,-0.134507,-10.9488,4000,-3018,0.34512,-0.00352,-0.0416,-2746,5526.87,30.64
61785346,0.0242642,0.00617859,0.0117064,4000,0,-0.357859,-0.136018,-10.9195,4000,-7018,0.34512,-0.00352,-0.0416,-6746,5526.87,30.64
61789345,0.0240548,0.00543128,0.0109654,3999,0,-0.341861,-0.144079,-10.95,3999,-1018,0.3444,-0.00248,-0.04392,-344,5525.99,30.64
61793360,0.0237341,0.00606075,0.00989924,4015,0,-0.320293,-0.127416,-10.9784,4015,-5033,0.3444,-0.00248,-0.04392,-4359,5525.99,30.64
61797346,0.0228788,0.00638531,0.0105342,3986,0,-0.347618,-0.139345,-10.9802,3986,-9019,0.3444,-0.00248,-0.04392,-8345,5525.99,30.64
61801348,0.0223486,0.00638532,0.0106422,4002,0,-0.347664,-0.127483,-10.9444,4002,-3021,0.34632,-0.00376,-0.04056,-1347,5527.02,30.64
61805382,0.0235136,0.00734138,0.00989693,4034,0,-0.326555,-0.127852,-10.9382,4034,-7055,0.34632,-0.00376,-0.04056,-5381,5527.02,30.64
61809346,0.0229911,0.00744954,0.0103219,3964,0,-0.334291,-0.148048,-10.9603,3964,-1019,0.34472,-0.0024,-0.04624,-9345,5527.02,30.64
61813346,0.024153,0.00691875,0.0101087,4000,0,-0.358539,-0.15185,-11.0151,4000,-5019,0.34472,-0.0024,-0.04624,-13345,5527.02,30.64
61817346,0.0236255,0.00638533,0.0101102,4000,0,-0.372516,-0.10448,-11.031,4000,-9019,0.34472,-0.0024,-0.04624,-17345,5527.02,30.64
61821346,0.0235274,0.00638531,0.0103148,4000,0,-0.350548,-0.119564,-10.9885,4000,-3019,0.34624,-0.0032,-0.04144,-21345,5527.02,30.64
61825347,0.0224627,0.00638532,0.0106422,4001,0,-0.35058,-0.111779,-10.9679,4001,-7020,0.34624,-0.0032,-0.04144,-3349,5526.14,30.65
61829346,0.0223486,0.00638532,0.0106422,3999,0,-0.332315,-0.118715,-10.9516,3999,-1019,0.344,-0.00264,-0.04576,-7348,5526.14,30.65
61833346,0.0235159,0.00638531,0.0111726,4000,0,-0.337059,-0.107787,-10.9454,4000,-5019,0.344,-0.00264,-0.04576,-345,5524.23,30.65
61837347,0.0237349,0.00649184,0.0115999,4001,0,-0.341918,-0.102006,-10.9382,4001,-9020,0.344,-0.00264,-0.04576,-4346,5524.23,30.65
61841346,0.0237388,0.00744954,0.0106422,3999,0,-0.343747,-0.108128,-10.9572,3999,-3019,0.34592,-0.00304,-0.04064,-8345,5524.23,30.65
61845353,0.0246891,0.00691783,0.0106422,4007,0,-0.371949,-0.134077,-10.9487,4007,-7026,0.34592,-0.00304,-0.04064,-1354,5524.52,30.65
61849346,0.0251148,0.00617303,0.0105356,3993,0,-0.365848,-0.116866,-10.9573,3993,-1019,0.34488,-0.00272,-0.04688,-5347,5524.52,30.65
61853346,0.0239481,0.0063853,0.0103199,4000,0,-0.336215,-0.132571,-10.9831,4000,-5019,0.34488,-0.00272,-0.04688,-9347,5524.52,30.65
61857352,0.0234128,0.00734035,0.0102158,4006,0,-0.304616,-0.128884,-10.9607,4006,-9025,0.34488,-0.00272,-0.04688,-13353,5524.52,30.65
61861346,0.0234128,0.00702601,0.0102187,3994,0,-0.299265,-0.114914,-10.9754,3994,-3019,0.34376,-0.00168,-0.04384,-17347,5524.52,30.65
61865353,0.0234128,0.0063853,0.011269,4007,0,-0.320751,-0.140198,-10.9661,4007,-7026,0.34376,-0.00168,-0.04384,-21354,5524.52,30.65
61869346,0.0244721,0.00691157,0.010966,3993,0,-0.340869,-0.14364,-10.9554,3993,-982,0.34392,-0.00248,-0.04768,-3358,5526.58,30.64
61873346,0.0241683,0.00638531,0.0106422,4000,0,-0.340455,-0.12211,-10.9544,4000,-4982,0.34392,-0.00248,-0.04768,-7358,5526.58,30.64
61877345,0.0234128,0.00734016,0.0108506,3999,0,-0.337059,-0.138379,-10.9597,3999,-8981,0.34392,-0.00248,-0.04768,-359,5525.26,30.64
61881346,0.0229898,0.00660303,0.0107535,4001,0,-0.339066,-0.126927,-10.9644,4001,-3019,0.34512,-0.0024,-0.04176,-4360,5525.26,30.64
61885346,0.0229842,0.0064948,0.0104293,4000,0,-0.326543,-0.130656,-10.9626,4000,-7019,0.34512,-0.0024,-0.04176,-8360,5525.26,30.64
61889378,0.0233009,0.00681607,0.010752,4032,0,-0.328566,-0.116879,-10.9851,4032,-1023,0.34488,-0.00224,-0.04688,-1390,5524.67,30.64
61893370,0.0234128,0.00744954,0.0109565,3992,0,-0.356701,-0.107204,-10.9782,3992,-5015,0.34488,-0.00224,-0.04688,-5382,5524.67,30.64
61897346,0.0234128,0.00809072,0.0102139,3976,0,-0.337059,-0.108206,-10.9765,3976,-8991,0.34488,-0.00224,-0.04688,-9358,5524.67,30.64
61901346,0.0234128,0.00744953,0.0100007,4000,0,-0.355194,-0.113925,-10.9397,4000,-3019,0.34456,-0.00272,-0.0444,-13358,5524.67,30.64
61905346,0.0232,0.00702384,0.0113842,4000,0,-0.364903,-0.116398,-10.9305,4000,-7019,0.34456,-0.00272,-0.0444,-17358,5524.67,30.64
61909380,0.0235228,0.00649534,0.0103235,4034,0,-0.344786,-0.128286,-10.9548,4034,-1044,0.34528,-0.0032,-0.048,-21392,5524.67,30.64
61913346,0.0244771,0.0064909,0.0111809,3966,0,-0.336105,-0.122581,-10.9448,3966,-5010,0.34528,-0.0032,-0.048,-3360,5525.7,30.63
61917346,0.0240514,0.00638531,0.0106422,4000,0,-0.345204,-0.132612,-10.9831,4000,-9010,0.34528,-0.0032,-0.048,-7360,5525.7,30.63
61921345,0.0234128,0.00638531,0.0101135,3999,0,-0.351437,-0.136043,-10.9846,3999,-2997,0.34464,-0.00304,-0.044,-357,5527.16,30.63
61925346,0.0228814,0.00638532,0.010221,4001,0,-0.354319,-0.133486,-10.9673,4001,-6998,0.34464,-0.00304,-0.044,-4358,5527.16,30.63
61929346,0.0229871,0.00649173,0.0103211,4000,0,-0.362474,-0.12596,-10.987,4000,-996,0.34336,-0.00328,-0.04544,-8358,5527.16,30.63
61933346,0.0224514,0.00670751,0.0106422,4000,0,-0.349098,-0.113511,-10.976,4000,-4996,0.34336,-0.00328,-0.04544,-1360,5527.46,30.63
61937346,0.0238385,0.00681101,0.0109585,4000,0,-0.348609,-0.130644,-10.9521,4000,-8996,0.34336,-0.00328,-0.04544,-5360,5527.46,30.63
61941346,0.0250014,0.00744954,0.0104371,4000,0,-0.356257,-0.105963,-10.94,4000,-3019,0.34536,-0.00168,-0.04288,-9360,5527.46,30.63
61945347,0.0254347,0.00671208,0.0096845,4001,0,-0.362933,-0.102386,-10.9553,4001,-7020,0.34536,-0.00168,-0.04288,-13361,5527.46,30.63
61949346,0.0235195,0.00713006,0.0106422,3999,0,-0.33376,-0.116358,-10.9635,3999,-1009,0.34384,-0.00312,-0.04672,-17360,5527.46,30.63
61953349,0.0234128,0.00744954,0.0106422,4003,0,-0.344234,-0.126889,-10.9788,4003,-5012,0.34384,-0.00312,-0.04672,-21363,5527.46,30.63
61958182,0.0242112,0.00674083,0.0109986,4833,0,-0.331615,-0.108145,-10.9918,4833,-9845,0.34384,-0.00312,-0.04672,-3545,5525.4,30.64
61962168,0.024477,0.00628333,0.0103159,3986,0,-0.331383,-0.131405,-10.978,3986,-3800,0.3452,-0.00184,-0.04576,-7531,5525.4,30.64
61966195,0.024477,0.00627313,0.00979586,4027,0,-0.342591,-0.148013,-10.9848,4027,-7827,0.3452,-0.00184,-0.04576,-1198,5527.46,30.64
61970168,0.024477,0.00693349,0.0106517,3973,0,-0.349412,-0.137742,-10.9558,3973,-1811,0.34528,-0.00288,-0.04776,-5171,5527.46,30.64
61974946,0.0237643,0.0068388,0.0115347,4778,0,-0.337947,-0.147282,-10.9731,4778,-6589,0.34528,-0.00288,-0.04776,-9949,5527.46,30.64
61978946,0.0242598,0.00616809,0.0102146,4000,0,-0.347711,-0.13652,-10.9766,4000,-584,0.34416,-0.0012,-0.04616,-2960,5526.28,30.64
61982946,0.024477,0.00681393,0.0106422,4000,0,-0.341413,-0.12402,-10.954,4000,-4584,0.34416,-0.0012,-0.04616,-6960,5526.28,30.64
61986964,0.024477,0.00691981,0.0105368,4018,0,-0.339483,-0.134111,-10.9228,4018,-8602,0.34416,-0.0012,-0.04616,-10978,5526.28,30.64
61990946,0.023189,0.00713644,0.00957797,3982,0,-0.338074,-0.145005,-10.9356,3982,-2569,0.34496,-0.00176,-0.04808,-14960,5526.28,30.64
61994946,0.0228818,0.0063853,0.010109,4000,0,-0.339026,-0.144221,-10.9611,4000,-6569,0.34496,-0.00176,-0.04808,-18960,5526.28,30.64
61998946,0.0224522,0.00723669,0.0106422,4000,0,-0.330879,-0.122571,-10.9774,4000,-620,0.34288,-0.00168,-0.04528,-960,5527.02,30.63
62002947,0.0234128,0.00755314,0.0104293,4001,0,-0.324644,-0.139791,-10.9789,4001,-4621,0.34288,-0.00168,-0.04528,-4961,5527.02,30.63
62007019,0.0234128,0.00743987,0.0112788,4072,0,-0.324628,-0.145489,-10.9823,4072,-8693,0.34288,-0.00168,-0.04528,-9033,5527.02,30.63
62010946,0.0230943,0.00648694,0.0106422,3927,0,-0.320732,-0.131135,-10.9764,3927,-2601,0.34432,-0.00192,-0.04736,-1960,5525.55,30.63
62014946,0.0224488,0.00734937,0.00979082,4000,0,-0.337068,-0.113513,-10.9847,4000,-6601,0.34432,-0.00192,-0.04736,-5960,5525.55,30.63
62018946,0.0234128,0.0064888,0.0101101,4000,0,-0.344273,-0.114922,-10.9673,4000,-600,0.34384,-0.00136,-0.04704,-9960,5525.55,30.63
62022946,0.0234128,0.00713028,0.00979402,4000,0,-0.346667,-0.114976,-11.0061,4000,-4600,0.34384,-0.00136,-0.04704,-2958,5526.28,30.63
62026967,0.0239453,0.00744954,0.00957798,4021,0,-0.338007,-0.10968,-10.9985,4021,-8621,0.34384,-0.00136,-0.04704,-6979,5526.28,30.63
62034946,0.0241614,0.00713386,0.0106422,4000,0,-0.352491,-0.124035,-10.9809,4000,-6614,0.34376,-0.00056,-0.0476,-14958,5526.28,30.63
62038947,0.0237292,0.00648892,0.0106422,4001,0,-0.337569,-0.120201,-10.9477,4001,-620,0.34296,-0.00128,-0.04752,-18959,5526.28,30.63
62042946,0.0243709,0.00744953,0.0108551,3999,0,-0.344176,-0.122045,-10.9682,3999,-4619,0.34296,-0.00128,-0.04752,-956,5527.46,30.65
62046973,0.0234128,0.00691386,0.0106422,4027,0,-0.350078,-0.12588,-10.965,4027,-8646,0.34296,-0.00128,-0.04752,-4983,5527.46,30.65
62050946,0.0230949,0.00563637,0.0106422,3973,0,-0.33947,-0.113466,-10.9808,3973,-2619,0.34304,-0.00096,-0.04904,-8956,5527.46,30.65
62054946,0.0234128,0.00638531,0.010744,4000,0,-0.335188,-0.130784,-10.965,4000,-6619,0.34304,-0.00096,-0.04904,-1960,5527.02,30.65
62058946,0.0237226,0.00638533,0.0113966,4000,0,-0.336039,-0.103864,-10.9754,4000,-619,0.34584,-0.00232,-0.0488,-5960,5527.02,30.65
62062946,0.024477,0.00638532,0.0106422,4000,0,-0.353828,-0.119125,-10.969,4000,-4619,0.34584,-0.00232,-0.0488,-9960,5527.02,30.65
62066946,0.0243758,0.00648655,0.0106422,4000,0,-0.349121,-0.141716,-10.9598,4000,-8619,0.34584,-0.00232,-0.0488,-2949,5526.87,30.65
62070946,0.0234128,0.00744953,0.0113901,4000,0,-0.339511,-0.139835,-10.9597,4000,-2619,0.3424,-0.00168,-0.0488,-6949,5526.87,30.65
62074947,0.0234128,0.00691729,0.0106422,4001,0,-0.330833,-0.134577,-10.9674,4001,-6620,0.3424,-0.00168,-0.0488,-10950,5526.87,30.65
62078946,0.0242643,0.00691317,0.0105387,3999,0,-0.338029,-0.13544,-10.9751,3999,-585,0.3444,-0.00112,-0.04768,-14949,5526.87,30.65
62082947,0.0239464,0.00692154,0.010106,4001,0,-0.348116,-0.139405,-10.9888,4001,-4586,0.3444,-0.00112,-0.04768,-18950,5526.87,30.65
62086946,0.0253285,0.00638532,0.0106422,3999,0,-0.349567,-0.128809,-10.9717,3999,-8585,0.3444,-0.00112,-0.04768,-960,5528.34,30.66
62090978,0.0250051,0.00638531,0.0106422,4032,0,-0.341877,-0.127348,-10.9486,4032,-2651,0.34072,-0.00168,-0.04848,-4992,5528.34,30.66
62094946,0.0239406,0.00638531,0.0106422,3968,0,-0.332775,-0.132145,-10.9328,3968,-6619,0.34072,-0.00168,-0.04848,-8960,5528.34,30.66
62098946,0.0235163,0.00660108,0.0109585,4000,0,-0.326543,-0.109189,-10.9487,4000,-579,0.34376,0.00072,-0.04792,-1955,5525.11,30.66
62102946,0.0243735,0.00681288,0.0111754,4000,0,-0.339058,-0.104302,-10.9577,4000,-4579,0.34376,0.00072,-0.04792,-5955,5525.11,30.66
62106946,0.0231971,0.00638532,0.0106422,4000,0,-0.332276,-0.105837,-10.9612,4000,-8579,0.34376,0.00072,-0.04792,-9955,5525.11,30.66
62110971,0.0234128,0.00649146,0.0111775,4025,0,-0.342844,-0.0914633,-10.9497,4025,-2644,0.34264,0.00032,-0.04848,-2983,5524.52,30.66
62114949,0.0234128,0.00744954,0.0113897,3978,0,-0.322181,-0.120156,-11.0053,3978,-6622,0.34264,0.00032,-0.04848,-6961,5524.52,30.66
62118946,0.0230993,0.00659791,0.0107427,3997,0,-0.338121,-0.132742,-11.0098,3997,-619,0.34296,-0.00048,-0.04824,-10958,5524.52,30.66
62122946,0.0227714,0.00638532,0.010855,4000,0,-0.338048,-0.114456,-11.0296,4000,-4619,0.34296,-0.00048,-0.04824,-14958,5524.52,30.66
62126947,0.0226693,0.00638532,0.0106422,4001,0,-0.335213,-0.103946,-10.9878,4001,-8620,0.34296,-0.00048,-0.04824,-18959,5524.52,30.66
62130946,0.0234128,0.0061695,0.00979074,3999,0,-0.340948,-0.0962201,-10.9453,3999,-2619,0.34216,-0.00016,-0.04704,-945,5526.14,30.65
62134969,0.0230954,0.00692047,0.0103248,4023,0,-0.325598,-0.117384,-10.9506,4023,-6642,0.34216,-0.00016,-0.04704,-4968,5526.14,30.65
62138946,0.0228776,0.00744954,0.00914689,3977,0,-0.312637,-0.133112,-10.9751,3977,-609,0.34336,0.00072,-0.0476,-8945,5526.14,30.65
62142946,0.0228907,0.00744953,0.00968014,4000,0,-0.323038,-0.105396,-10.9885,4000,-4609,0.34336,0.00072,-0.0476,-1945,5523.79,30.65
62146947,0.0226622,0.00713594,0.0106422,4001,0,-0.347609,-0.106321,-10.9769,4001,-8610,0.34336,0.00072,-0.0476,-5946,5523.79,30.65
62150946,0.0239468,0.00638532,0.0109614,3999,0,-0.348121,-0.110599,-11.0028,3999,-2617,0.34208,-0.00048,-0.04784,-9945,5523.79,30.65
62154989,0.0234128,0.00638532,0.0106422,4043,0,-0.348606,-0.127532,-10.9898,4043,-6660,0.34208,-0.00048,-0.04784,-2988,5525.99,30.65
62158947,0.0225579,0.00638532,0.0106422,3958,0,-0.345707,-0.146969,-10.9884,3958,-620,0.34488,0.00032,-0.05024,-6946,5525.99,30.65
62162946,0.0224549,0.00649163,0.0106422,3999,0,-0.347184,-0.133635,-10.9705,3999,-4619,0.34488,0.00032,-0.05024,-10945,5525.99,30.65
62167748,0.0240317,0.00744954,0.0106422,4802,0,-0.344777,-0.144818,-10.9331,4802,-9421,0.34488,0.00032,-0.05024,-15747,5525.99,30.65
62172546,0.024477,0.00824471,0.0106422,4798,0,-0.333612,-0.141287,-10.9315,4798,-4213,0.34232,8e-05,-0.05248,-20545,5525.99,30.65
62176546,0.0240395,0.00724335,0.0106422,4000,0,-0.325984,-0.137517,-10.9656,4000,-8213,0.34232,8e-05,-0.05248,-2558,5525.99,30.66
62180546,0.024477,0.00638532,0.0104294,4000,0,-0.332772,-0.130267,-10.9798,4000,-2219,0.34408,-0.00064,-0.04872,-6558,5525.99,30.66
62184546,0.0237349,0.0073431,0.0101066,4000,0,-0.327499,-0.135481,-10.9841,4000,-6219,0.34408,-0.00064,-0.04872,-10558,5525.99,30.66
62188594,0.0234128,0.0069144,0.0106422,4048,0,-0.339045,-0.144626,-10.9818,4048,-267,0.34136,-0.0016,-0.05392,-3605,5526.87,30.66
62192546,0.0234128,0.00638532,0.0106422,3952,0,-0.34427,-0.138806,-10.9826,3952,-4219,0.34136,-0.0016,-0.05392,-7557,5526.87,30.66
62196546,0.0234128,0.00638531,0.0113842,4000,0,-0.342836,-0.112663,-10.9781,4000,-8219,0.34136,-0.0016,-0.05392,-554,5527.16,30.66
62200546,0.0234128,0.00585774,0.0114942,4000,0,-0.336152,-0.109598,-10.9774,4000,-2219,0.3448,-0.00136,-0.04856,-4554,5527.16,30.66
62204546,0.0234128,0.00553393,0.0113826,4000,0,-0.328026,-0.119751,-10.9635,4000,-6219,0.3448,-0.00136,-0.04856,-8554,5527.16,30.66
62208597,0.0236297,0.00638532,0.0117064,4051,0,-0.329976,-0.120644,-10.9439,4051,-270,0.34264,0.0004,-0.05288,-12605,5527.16,30.66
62212546,0.0242615,0.00638532,0.0109549,3949,0,-0.323087,-0.113481,-10.9338,3949,-4219,0.34264,0.0004,-0.05288,-16554,5527.16,30.66
62216546,0.0236257,0.00617247,0.0106422,4000,0,-0.317458,-0.123062,-10.9577,4000,-8219,0.34264,0.0004,-0.05288,-20554,5527.16,30.66
62220546,0.0235192,0.00627889,0.0106422,4000,0,-0.32367,-0.128808,-10.9774,4000,-2219,0.34472,0.00056,-0.04848,-2539,5525.84,30.66
62224546,0.0234122,0.00712961,0.0106422,4000,0,-0.343807,-0.128808,-10.9832,4000,-6219,0.34472,0.00056,-0.04848,-6539,5525.84,30.66
62228583,0.023737,0.00691545,0.0106422,4037,0,-0.347071,-0.116824,-10.9373,4037,-256,0.3424,-0.00056,-0.05128,-10576,5525.84,30.66
62232546,0.0241578,0.00638532,0.0106422,3963,0,-0.328926,-0.103922,-10.9277,3963,-4219,0.3424,-0.00056,-0.05128,-3244,5527.75,30.66
62236546,0.0239479,0.00638531,0.0106422,4000,0,-0.32468,-0.136935,-10.9429,4000,-8219,0.3424,-0.00056,-0.05128,-7244,5527.75,30.66
62240546,0.0247934,0.0069145,0.0106422,4000,0,-0.337569,-0.1432,-10.9821,4000,-2219,0.34312,0.00064,-0.04744,-543,5525.11,30.66
62244547,0.0242641,0.00690585,0.0108551,4001,0,-0.350084,-0.107636,-10.9786,4001,-6220,0.34312,0.00064,-0.04744,-4544,5525.11,30.66
62248546,0.0234128,0.00585681,0.0109692,3999,0,-0.337158,-0.116322,-10.9716,3999,-215,0.34216,-0.00032,-0.052,-8543,5525.11,30.66
62252546,0.0231969,0.00585015,0.0115975,4000,0,-0.349503,-0.132165,-10.9736,4000,-4215,0.34216,-0.00032,-0.052,-12543,5525.11,30.66
62256546,0.0236307,0.00638532,0.0109665,4000,0,-0.349558,-0.125885,-10.9679,4000,-8215,0.34216,-0.00032,-0.052,-16543,5525.11,30.66
62260546,0.022674,0.00638532,0.0104336,4000,0,-0.332907,-0.120759,-10.9588,4000,-2211,0.34288,0.0004,-0.04784,-20543,5525.11,30.66
62264546,0.0223486,0.00638531,0.0101049,4000,0,-0.321664,-0.135503,-10.9801,4000,-6211,0.34288,0.0004,-0.04784,-2560,5528.04,30.66
62268546,0.0233033,0.00638533,0.0101131,4000,0,-0.342331,-0.131229,-11.0167,4000,-219,0.34264,0.00064,-0.05288,-6560,5528.04,30.66
62272546,0.0252173,0.00638531,0.0113777,4000,0,-0.344744,-0.116528,-10.9843,4000,-4219,0.34264,0.00064,-0.05288,-10560,5528.04,30.66
62276546,0.024477,0.00638532,0.0109613,4000,0,-0.341401,-0.104425,-10.9583,4000,-8219,0.34264,0.00064,-0.05288,-3558,5526.14,30.66
62280546,0.0239523,0.00734311,0.0107486,4000,0,-0.336579,-0.13502,-10.9783,4000,-2219,0.34288,0.00032,-0.04744,-7558,5526.14,30.66
62284546,0.0239338,0.00671165,0.00990428,4000,0,-0.347934,-0.15847,-10.9775,4000,-6219,0.34288,0.00032,-0.04744,-560,5526.87,30.66
62288546,0.0239452,0.00734311,0.00957798,4000,0,-0.366791,-0.123072,-10.9822,4000,-185,0.34256,-0.00016,-0.05016,-4560,5526.87,30.66
62292578,0.0243712,0.00744953,0.0105364,4032,0,-0.366278,-0.124936,-10.9314,4032,-4217,0.34256,-0.00016,-0.05016,-8592,5526.87,30.66
62296559,0.0254386,0.00691436,0.010107,3981,0,-0.336532,-0.149486,-10.921,3981,-8198,0.34256,-0.00016,-0.05016,-12573,5526.87,30.66
62300546,0.0245821,0.00691609,0.0105372,3987,0,-0.330388,-0.127856,-10.952,3987,-2209,0.34288,-8e-05,-0.04808,-16560,5526.87,30.66
62304546,0.0251127,0.00744954,0.0100066,4000,0,-0.329921,-0.118287,-10.9362,4000,-6209,0.34288,-8e-05,-0.04808,-20560,5526.87,30.66
62308546,0.0244771,0.00660096,0.0104295,4000,0,-0.318932,-0.122608,-10.9468,4000,-180,0.34184,0.00056,-0.05264,-2560,5524.96,30.67
62312570,0.0242623,0.00658934,0.0103169,4024,0,-0.311396,-0.135366,-10.9817,4024,-4204,0.34184,0.00056,-0.05264,-6584,5524.96,30.67
62316582,0.0239471,0.00616834,0.0106422,4012,0,-0.327581,-0.117772,-10.9961,4012,-8216,0.34184,0.00056,-0.05264,-10596,5524.96,30.67
62320546,0.025011,0.00628464,0.0106422,3964,0,-0.349109,-0.126945,-10.9822,3964,-2219,0.34416,-0.00056,-0.0468,-3279,5527.6,30.67
62324555,0.0246884,0.00744954,0.0106422,4009,0,-0.352416,-0.128351,-10.9626,4009,-6228,0.34416,-0.00056,-0.0468,-7288,5527.6,30.67
62328546,0.0248036,0.00692529,0.0106422,3991,0,-0.336136,-0.125388,-10.966,3991,-219,0.34328,8e-05,-0.05256,-560,5527.31,30.67
62332546,0.024477,0.00638532,0.0106422,4000,0,-0.343316,-0.13502,-10.9717,4000,-4219,0.34328,8e-05,-0.05256,-4560,5527.31,30.67
62336547,0.0239477,0.00712728,0.0108551,4001,0,-0.345244,-0.125534,-10.9759,4001,-8220,0.34328,8e-05,-0.05256,-8561,5527.31,30.67
62340546,0.0234128,0.00744954,0.0117064,3999,0,-0.324249,-0.108192,-10.9899,3999,-2217,0.34264,-0.0004,-0.04888,-12560,5527.31,30.67
62344577,0.0234128,0.0079757,0.0120215,4031,0,-0.321316,-0.129258,-10.9763,4031,-6248,0.34264,-0.0004,-0.04888,-16591,5527.31,30.67
62348547,0.0234128,0.00734338,0.0117064,3970,0,-0.325583,-0.142224,-11.0009,3970,-220,0.34208,8e-05,-0.05184,-20561,5527.31,30.67
62352546,0.0239513,0.00638532,0.0117064,3999,0,-0.339977,-0.145118,-10.9936,3999,-4219,0.34208,8e-05,-0.05184,-2524,5525.84,30.65
62356568,0.0234128,0.00638532,0.0115977,4022,0,-0.333272,-0.141222,-10.9851,4022,-8241,0.34208,8e-05,-0.05184,-6546,5525.84,30.65
62360546,0.0227696,0.00648804,0.0106422,3978,0,-0.329861,-0.110564,-10.963,3978,-2214,0.34336,-0.00016,-0.04896,-10524,5525.84,30.65
62364546,0.0239387,0.00744955,0.0101163,4000,0,-0.337521,-0.122541,-10.9764,4000,-6214,0.34336,-0.00016,-0.04896,-3526,5526.28,30.65
62368546,0.0245835,0.00703103,0.0105356,4000,0,-0.355267,-0.122138,-10.9864,4000,-219,0.3416,0.0,-0.05272,-7526,5526.28,30.65
62372546,0.0250135,0.00712588,0.0105358,4000,0,-0.344345,-0.11975,-10.9842,4000,-4219,0.3416,0.0,-0.05272,-544,5526.58,30.65
62376578,0.0238407,0.00702168,0.00989602,4032,0,-0.340027,-0.115366,-10.9669,4032,-8251,0.3416,0.0,-0.05272,-4576,5526.58,30.65
62380546,0.024056,0.00713306,0.0096803,3968,0,-0.351052,-0.112099,-10.9635,3968,-2219,0.3424,-0.00024,-0.0484,-8544,5526.58,30.65
62384562,0.0234128,0.00617438,0.0106422,4016,0,-0.318506,-0.123956,-10.9721,4016,-6235,0.3424,-0.00024,-0.0484,-12560,5526.58,30.65
62388546,0.0236275,0.00649216,0.0106422,3984,0,-0.311238,-0.14607,-10.9716,3984,-219,0.34288,0.0004,-0.05224,-16544,5526.58,30.65
62392546,0.0235193,0.00744954,0.0106422,4000,0,-0.325133,-0.136913,-10.9768,4000,-4219,0.34288,0.0004,-0.05224,-20544,5526.58,30.65
62396580,0.024367,0.0065998,0.0106422,4034,0,-0.323656,-0.11116,-11.001,4034,-8253,0.34288,0.0004,-0.05224,-2582,5525.55,30.68
62400546,0.0235202,0.00606948,0.0104316,3966,0,-0.340047,-0.115947,-10.9897,3966,-2217,0.34328,8e-05,-0.04696,-6548,5525.55,30.68
62404565,0.0235187,0.00723545,0.0108569,4019,0,-0.35146,-0.120168,-10.9602,4019,-6236,0.34328,8e-05,-0.04696,-10567,5525.55,30.68
62408546,0.0233059,0.00563975,0.0106422,3981,0,-0.343809,-0.117792,-10.953,3981,-219,0.34288,0.00048,-0.05176,-3268,5526.43,30.68
62412546,0.0227667,0.00586079,0.0106422,4000,0,-0.350066,-0.129287,-10.9706,4000,-4219,0.34288,0.00048,-0.05176,-7268,5526.43,30.68
62416546,0.0234128,0.00574386,0.0106422,4000,0,-0.344791,-0.1412,-10.9869,4000,-8219,0.34288,0.00048,-0.05176,-548,5527.02,30.68
62420546,0.0234128,0.00649173,0.0110648,4000,0,-0.348144,-0.134641,-10.9661,4000,-2219,0.34232,0.00056,-0.04792,-4548,5527.02,30.68
62424565,0.0234128,0.00734402,0.0112835,4019,0,-0.330891,-0.107262,-10.9655,4019,-6238,0.34232,0.00056,-0.04792,-8567,5527.02,30.68
62428546,0.0240541,0.00638532,0.0106422,3981,0,-0.340481,-0.115874,-10.9443,3981,-219,0.34304,0.00024,-0.054,-12548,5527.02,30.68
62432546,0.0241627,0.00638532,0.0106422,4000,0,-0.342327,-0.138842,-10.9767,4000,-4219,0.34304,0.00024,-0.054,-16548,5527.02,30.68
62436546,0.0234128,0.00649174,0.0106422,4000,0,-0.339524,-0.138903,-10.9579,4000,-8219,0.34304,0.00024,-0.054,-20548,5527.02,30.68
62440546,0.0242566,0.00786858,0.0106422,4000,0,-0.328869,-0.128722,-10.9767,4000,-2219,0.3436,-0.00104,-0.04864,-2548,5527.16,30.67
62444565,0.024583,0.00681204,0.0110778,4019,0,-0.35203,-0.140769,-10.9592,4019,-6238,0.3436,-0.00104,-0.04864,-6567,5527.16,30.67
62448546,0.0245813,0.00734514,0.0103235,3981,0,-0.335658,-0.131194,-10.9444,3981,-219,0.34304,0.00056,-0.0536,-10548,5527.16,30.67
62452546,0.0245835,0.00670977,0.0106422,4000,0,-0.338587,-0.150286,-10.9429,4000,-4219,0.34304,0.00056,-0.0536,-3534,5526.72,30.67
62456547,0.0246961,0.00734207,0.0106422,4001,0,-0.312726,-0.150812,-10.9468,4001,-8220,0.34304,0.00056,-0.0536,-7535,5526.72,30.67
62460578,0.0245869,0.00744954,0.0102123,4031,0,-0.335699,-0.135453,-10.997,4031,-2251,0.34416,-0.00128,-0.04952,-580,5527.31,30.67
62464565,0.0254356,0.00744953,0.010326,3987,0,-0.326504,-0.12548,-10.9855,3987,-6238,0.34416,-0.00128,-0.04952,-4567,5527.31,30.67
62468546,0.0237315,0.00744953,0.0106422,3981,0,-0.339518,-0.128331,-10.987,3981,-208,0.34368,0.0004,-0.05128,-8548,5527.31,30.67
62472546,0.0234128,0.00744954,0.0106422,4000,0,-0.349544,-0.138837,-10.9736,4000,-4208,0.34368,0.0004,-0.05128,-12548,5527.31,30.67
62476546,0.0234128,0.00649173,0.011065,4000,0,-0.353889,-0.140819,-10.9549,4000,-8208,0.34368,0.0004,-0.05128,-16548,5527.31,30.67
62480579,0.0231004,0.00712471,0.010967,4033,0,-0.348057,-0.138369,-10.9592,4033,-2252,0.34416,-8e-05,-0.04784,-20581,5527.31,30.67
62484565,0.0226658,0.0073402,0.011604,3986,0,-0.349061,-0.12734,-10.9616,3986,-6238,0.34416,-8e-05,-0.04784,-2567,5525.55,30.67
62488546,0.0233083,0.00702503,0.0117064,3981,0,-0.339975,-0.132637,-10.9621,3981,-219,0.34296,-0.00056,-0.0512,-6548,5525.55,30.67
62492547,0.023732,0.00606614,0.0109643,4001,0,-0.335164,-0.116875,-10.9592,4001,-4220,0.34296,-0.00056,-0.0512,-10549,5525.55,30.67
62496546,0.023831,0.00734323,0.0100111,3999,0,-0.337136,-0.11352,-10.9562,3999,-8219,0.34296,-0.00056,-0.0512,-3028,5526.14,30.67
62500546,0.0243706,0.00818971,0.0102164,4000,0,-0.329485,-0.129244,-10.9616,4000,-2185,0.34224,0.00072,-0.04808,-7028,5526.14,30.67
62504573,0.024157,0.00840448,0.0105365,4027,0,-0.343814,-0.128827,-10.9789,4027,-6212,0.34224,0.00072,-0.04808,-575,5525.26,30.67
62508546,0.0236235,0.00755668,0.0106422,3973,0,-0.341886,-0.144639,-10.9769,3973,-219,0.3436,-0.00152,-0.05024,-4548,5525.26,30.67
62512546,0.0241636,0.00735721,0.0106422,4000,0,-0.33282,-0.130345,-10.9712,4000,-4219,0.3436,-0.00152,-0.05024,-8548,5525.26,30.67
62516546,0.0248978,0.00734312,0.0107486,4000,0,-0.339454,-0.122126,-10.9735,4000,-8219,0.3436,-0.00152,-0.05024,-12548,5525.26,30.67
62520546,0.024387,0.00744954,0.0109697,4000,0,-0.333311,-0.109729,-10.9665,4000,-2213,0.34288,0.00024,-0.04712,-16548,5525.26,30.67
62524546,0.0243706,0.0078723,0.0106422,4000,0,-0.345736,-0.106276,-10.9612,4000,-6213,0.34288,0.00024,-0.04712,-20548,5525.26,30.67
62528547,0.0240588,0.00735391,0.0107441,4001,0,-0.341456,-0.113957,-10.95,4001,-220,0.34416,-0.00104,-0.04848,-2536,5525.7,30.67
62532546,0.0237372,0.00660833,0.0117064,3999,0,-0.341766,-0.117175,-10.9745,3999,-4219,0.34416,-0.00104,-0.04848,-6535,5525.7,30.67
62536546,0.0235192,0.00659218,0.0112867,4000,0,-0.348596,-0.138864,-10.9798,4000,-8219,0.34416,-0.00104,-0.04848,-10535,5525.7,30.67
62540546,0.0235192,0.00638532,0.0108592,4000,0,-0.351487,-0.125512,-10.9742,4000,-2186,0.34352,-0.00024,-0.0484,-3549,5526.43,30.67
62544582,0.0243716,0.00638532,0.0106422,4036,0,-0.341393,-0.110169,-10.94,4036,-6222,0.34352,-0.00024,-0.0484,-7585,5526.43,30.67
62548546,0.023941,0.00680749,0.0106422,3964,0,-0.329392,-0.126911,-10.9252,3964,-219,0.34392,-0.0004,-0.05048,-548,5528.92,30.67
62552546,0.0235194,0.00744953,0.0101061,4000,0,-0.339977,-0.118774,-10.9405,4000,-4219,0.34392,-0.0004,-0.05048,-4548,5528.92,30.67
62556546,0.0243706,0.00744954,0.0106422,4000,0,-0.335188,-0.129766,-10.9583,4000,-8219,0.34392,-0.0004,-0.05048,-8548,5528.92,30.67
62560546,0.0240543,0.00744953,0.0106422,4000,0,-0.345244,-0.110188,-10.9655,4000,-2213,0.34256,0.00016,-0.04768,-12548,5528.92,30.67
62564555,0.0235202,0.00691995,0.0106422,4009,0,-0.354293,-0.110131,-10.9602,4009,-6222,0.34256,0.00016,-0.04768,-16557,5528.92,30.67
62568546,0.0244771,0.00766725,0.0113775,3991,0,-0.348119,-0.131983,-10.9763,3991,-219,0.34336,-0.00056,-0.05072,-20548,5528.92,30.67
62572549,0.0247961,0.0065984,0.0115997,4003,0,-0.354822,-0.117809,-10.9659,4003,-4222,0.34336,-0.00056,-0.05072,-2552,5524.82,30.67
62576546,0.023629,0.00702752,0.0106422,3997,0,-0.362501,-0.125952,-10.9635,3997,-8219,0.34336,-0.00056,-0.05072,-6549,5524.82,30.67
62580546,0.0234128,0.00638532,0.0096844,4000,0,-0.341105,-0.135478,-10.9693,4000,-2211,0.34352,-0.00024,-0.04824,-10549,5524.82,30.67
62584570,0.0243681,0.00627636,0.00957797,4024,0,-0.325065,-0.113545,-10.9826,4024,-6235,0.34352,-0.00024,-0.04824,-3353,5526.72,30.67
62588546,0.0234128,0.00574359,0.0112788,3976,0,-0.333234,-0.119717,-10.9765,3976,-219,0.34448,-0.00104,-0.05112,-7329,5526.72,30.67
62592569,0.0226691,0.00638531,0.0117064,4023,0,-0.332821,-0.127872,-10.9602,4023,-4242,0.34448,-0.00104,-0.05112,-571,5527.75,30.67
62596546,0.0224556,0.00638532,0.0117064,3977,0,-0.343861,-0.149355,-10.9511,3977,-8219,0.34448,-0.00104,-0.05112,-4548,5527.75,30.67
62600546,0.0234128,0.00638532,0.0113885,4000,0,-0.352432,-0.165206,-10.9631,4000,-2219,0.3436,-0.0004,-0.04888,-8548,5527.75,30.67
62604546,0.0234128,0.00649174,0.0106422,4000,0,-0.360101,-0.1513,-10.9526,4000,-6219,0.3436,-0.0004,-0.04888,-12548,5527.75,30.67
62608546,0.0234128,0.00787363,0.00968441,4000,0,-0.334724,-0.135047,-10.965,4000,-219,0.34216,-0.00072,-0.04968,-16548,5527.75,30.67
62612589,0.0234128,0.00776829,0.0103234,4043,0,-0.348125,-0.144619,-10.9525,4043,-4262,0.34216,-0.00072,-0.04968,-20591,5527.75,30.67
62616546,0.0241629,0.00744955,0.00978452,3957,0,-0.363003,-0.13745,-10.9641,3957,-8219,0.34216,-0.00072,-0.04968,-2549,5526.28,30.67
62620546,0.0244771,0.00659815,0.00978457,4000,0,-0.342878,-0.138329,-10.975,4000,-2219,0.34328,-0.00072,-0.05096,-6549,5526.28,30.67
62624546,0.0244771,0.00744953,0.010424,4000,0,-0.328508,-0.134075,-11.0022,4000,-6219,0.34328,-0.00072,-0.05096,-10549,5526.28,30.67
62628569,0.0246928,0.00649114,0.0112812,4023,0,-0.329933,-0.138374,-11.0186,4023,-242,0.3432,0.00016,-0.04864,-3571,5525.55,30.67
62632561,0.0243728,0.00596211,0.0109653,3992,0,-0.34143,-0.13545,-11.0033,3992,-4234,0.3432,0.00016,-0.04864,-7563,5525.55,30.67
62636546,0.0234128,0.00574545,0.0105354,3985,0,-0.348111,-0.143652,-10.9669,3985,-8219,0.3432,0.00016,-0.04864,-549,5525.7,30.67
62640546,0.0235228,0.00638531,0.0103199,4000,0,-0.328485,-0.125988,-10.987,4000,-2208,0.34504,-0.00136,-0.04896,-4549,5525.7,30.67
62644546,0.0230901,0.0070204,0.0099007,4000,0,-0.341845,-0.112512,-11.0142,4000,-6208,0.34504,-0.00136,-0.04896,-8549,5525.7,30.67
62648579,0.0238437,0.00638532,0.0105324,4033,0,-0.352404,-0.114922,-11.0158,4033,-252,0.34168,-0.00088,-0.04952,-12582,5525.7,30.67
62652581,0.024477,0.00649635,0.0102134,4002,0,-0.350012,-0.109191,-11.0098,4002,-4254,0.34168,-0.00088,-0.04952,-16584,5525.7,30.67
62656546,0.0245844,0.00787603,0.00957798,3965,0,-0.351478,-0.109136,-10.9827,3965,-8219,0.34168,-0.00088,-0.04952,-20549,5525.7,30.67
62660546,0.0243797,0.00755609,0.00957798,4000,0,-0.348568,-0.100037,-10.9617,4000,-2210,0.34448,0.00024,-0.04784,-2549,5525.26,30.69
62664546,0.0228731,0.00744954,0.00957797,4000,0,-0.366689,-0.142934,-10.9797,4000,-6210,0.34448,0.00024,-0.04784,-6549,5525.26,30.69
62669345,0.0242018,0.00762684,0.00940068,4799,0,-0.358415,-0.153199,-10.9676,4799,-999,0.34256,-0.00104,-0.04744,-342,5524.96,30.69
62673354,0.0243698,0.00766601,0.00915006,4009,0,-0.342876,-0.139838,-10.9773,4009,-5008,0.34256,-0.00104,-0.04744,-4351,5524.96,30.69
62677346,0.0234128,0.00755804,0.0105337,3992,0,-0.339961,-0.11588,-10.9463,3992,-9000,0.34256,-0.00104,-0.04744,-8343,5524.96,30.69
62681346,0.0237262,0.00744954,0.0106422,4000,0,-0.317227,-0.135834,-10.97,4000,-2987,0.34448,-0.00136,-0.04592,-1330,5525.84,30.69
62685347,0.0243657,0.00755607,0.0106422,4001,0,-0.328374,-0.13268,-10.9798,4001,-6988,0.34448,-0.00136,-0.04592,-5331,5525.84,30.69
62689346,0.0238413,0.00819441,0.0109586,3999,0,-0.335175,-0.11302,-10.9741,3999,-977,0.34176,-0.0004,-0.04856,-9330,5525.84,30.69
62693374,0.0242591,0.00744954,0.0100036,4028,0,-0.343854,-0.131242,-10.9634,4028,-5005,0.34176,-0.0004,-0.04856,-13358,5525.84,30.69
62697346,0.0240485,0.00744954,0.00968515,3972,0,-0.347663,-0.131231,-10.9391,3972,-8977,0.34176,-0.0004,-0.04856,-17330,5525.84,30.69
62701346,0.0250046,0.00713187,0.0106422,4000,0,-0.337548,-0.119204,-10.9286,4000,-2983,0.34376,-0.00096,-0.04568,-21330,5525.84,30.69
62705346,0.0244771,0.00638531,0.0109615,4000,0,-0.366746,-0.128306,-10.9477,4000,-6983,0.34376,-0.00096,-0.04568,-2764,5527.02,30.68
62709346,0.024477,0.00733714,0.0110739,4000,0,-0.373444,-0.146445,-10.9673,4000,-990,0.34184,-0.0008,-0.04664,-6764,5527.02,30.68
62713398,0.024477,0.00744954,0.0106422,4052,0,-0.338465,-0.135489,-10.9721,4052,-5042,0.34184,-0.0008,-0.04664,-398,5527.16,30.68
62717346,0.0235174,0.00744953,0.01075,3948,0,-0.338553,-0.138393,-10.9693,3948,-8990,0.34184,-0.0008,-0.04664,-4346,5527.16,30.68
62721346,0.0234128,0.00744954,0.0117064,4000,0,-0.350062,-0.136478,-10.9732,4000,-3015,0.34408,8e-05,-0.04664,-8346,5527.16,30.68
62725346,0.0244719,0.00734538,0.0107515,4000,0,-0.330423,-0.134109,-10.9401,4000,-7015,0.34408,8e-05,-0.04664,-1346,5526.43,30.68
62729368,0.0249033,0.00638532,0.0100042,4022,0,-0.320902,-0.113004,-10.9266,4022,-1018,0.3424,-0.00016,-0.0504,-5368,5526.43,30.68
62733363,0.0243732,0.00702518,0.00957798,3995,0,-0.343341,-0.117801,-10.9693,3995,-5013,0.3424,-0.00016,-0.0504,-9363,5526.43,30.68
62737346,0.0234128,0.00649153,0.00957797,3983,0,-0.333256,-0.133143,-10.986,3983,-8996,0.3424,-0.00016,-0.0504,-13346,5526.43,30.68
62741346,0.0234128,0.00638531,0.0105328,4000,0,-0.326057,-0.147516,-10.9818,4000,-2995,0.34568,-0.00032,-0.04696,-17346,5526.43,30.68
62745346,0.0235191,0.00638531,0.0107485,4000,0,-0.336144,-0.135991,-10.9664,4000,-6995,0.34568,-0.00032,-0.04696,-21346,5526.43,30.68
62749379,0.0235264,0.00638532,0.0110724,4033,0,-0.364782,-0.136433,-10.9792,4033,-1052,0.34328,-0.0012,-0.0484,-3382,5526.28,30.68
62753346,0.0234128,0.00638531,0.0107495,3967,0,-0.36103,-0.132144,-10.9535,3967,-5019,0.34328,-0.0012,-0.0484,-7349,5526.28,30.68
62757345,0.0234128,0.00638532,0.0117064,3999,0,-0.349077,-0.12497,-10.9717,3999,-9018,0.34328,-0.0012,-0.0484,-348,5526.28,30.68
62761346,0.0234128,0.00723661,0.0117064,4001,0,-0.334231,-0.111569,-10.9784,4001,-3019,0.34384,-0.00064,-0.04616,-4349,5526.28,30.68
62765346,0.0234128,0.00744954,0.0110739,4000,0,-0.3171,-0.107739,-10.9812,4000,-7019,0.34384,-0.00064,-0.04616,-8349,5526.28,30.68
62770168,0.0234128,0.00647768,0.0106422,4822,0,-0.333136,-0.114907,-10.9898,4822,-1841,0.34368,-0.00216,-0.04608,-2171,5526.14,30.68
62774182,0.0242679,0.00692511,0.0114972,4014,0,-0.341555,-0.118279,-11.0071,4014,-5855,0.34368,-0.00216,-0.04608,-6185,5526.14,30.68
62778168,0.0241508,0.00777579,0.0117064,3986,0,-0.344717,-0.131332,-10.9686,3986,-9841,0.34368,-0.00216,-0.04608,-10171,5526.14,30.68
62782168,0.0234128,0.00766345,0.0113837,4000,0,-0.326127,-0.128372,-10.9535,4000,-3827,0.3464,-0.0012,-0.04584,-14171,5526.14,30.68
62786188,0.0236302,0.00713477,0.0106422,4020,0,-0.337119,-0.128722,-10.9713,4020,-7847,0.3464,-0.0012,-0.04584,-18191,5526.14,30.68
62790187,0.0234128,0.00756145,0.0099882,3999,0,-0.352053,-0.120746,-10.9985,3999,-1860,0.34232,-0.00184,-0.048,-190,5525.26,30.68
62794151,0.0234128,0.00851376,0.00851376,3964,0,-0.345162,-0.134589,-10.9961,3964,-5824,0.34232,-0.00184,-0.048,-4154,5525.26,30.68
62798168,0.0234128,0.00787142,0.00915409,4017,0,-0.329458,-0.139354,-11.0204,4017,-9841,0.34232,-0.00184,-0.048,-8171,5525.26,30.68
62802169,0.0235223,0.00744953,0.0114916,4001,0,-0.329469,-0.133576,-10.9671,4001,-3837,0.34584,-0.00128,-0.04448,-1173,5526.28,30.68
62806174,0.024477,0.00744954,0.0108517,4005,0,-0.335683,-0.135588,-10.9985,4005,-7842,0.34584,-0.00128,-0.04448,-5178,5526.28,30.68
62810179,0.0243666,0.00659803,0.0106422,4005,0,-0.342243,-0.141294,-10.9855,4005,-1852,0.34312,-0.00264,-0.0456,-9183,5526.28,30.68
62814204,0.0237412,0.00671371,0.0106422,4025,0,-0.331425,-0.125218,-10.9778,4025,-5877,0.34312,-0.00264,-0.0456,-2212,5527.31,30.68
62818190,0.024477,0.00691823,0.0111735,3986,0,-0.327045,-0.109668,-10.9897,3986,137,0.34616,-0.00072,-0.04504,-6198,5527.31,30.68
62822168,0.0245853,0.00799048,0.00978612,3978,0,-0.326064,-0.114959,-11.0023,3978,-3841,0.34616,-0.00072,-0.04504,-10176,5527.31,30.68
62826168,0.0254319,0.00765944,0.00990309,4000,0,-0.322607,-0.13321,-10.9883,4000,-7841,0.34616,-0.00072,-0.04504,-14176,5527.31,30.68
62830193,0.0240541,0.00744953,0.0106422,4025,0,-0.30903,-0.149855,-10.9645,4025,-1866,0.34328,-0.00232,-0.04784,-18201,5527.31,30.68
62834175,0.0244861,0.00744954,0.0106422,3982,0,-0.339148,-0.141135,-10.9717,3982,-5848,0.34328,-0.00232,-0.04784,-179,5526.58,30.69
62838168,0.0250029,0.00744953,0.00989687,3993,0,-0.355844,-0.145552,-10.9703,3993,-9841,0.34328,-0.00232,-0.04784,-4172,5526.58,30.69
62842178,0.024477,0.00712696,0.00978736,4010,0,-0.358621,-0.145548,-10.9769,4010,-3845,0.3448,-0.00144,-0.04448,-8182,5526.58,30.69
62846191,0.024477,0.00671548,0.00957798,4013,0,-0.352279,-0.138958,-10.9608,4013,-7858,0.3448,-0.00144,-0.04448,-1205,5525.7,30.69
62850183,0.0243655,0.00830422,0.00957798,3992,0,-0.346735,-0.107771,-10.9508,3992,-1856,0.34336,-0.00296,-0.04608,-5197,5525.7,30.69
62854168,0.0229826,0.00851374,0.00990432,3985,0,-0.331837,-0.105741,-10.9341,3985,-5841,0.34336,-0.00296,-0.04608,-9182,5525.7,30.69
62858168,0.0242671,0.00851376,0.0106422,4000,0,-0.347638,-0.100143,-10.9708,4000,-9841,0.34336,-0.00296,-0.04608,-2182,5525.26,30.69
62862186,0.0241489,0.00797342,0.0116084,4018,0,-0.32979,-0.116457,-10.9674,4018,-3859,0.34376,-0.00312,-0.04168,-6200,5525.26,30.69
62866168,0.0234128,0.00777613,0.0118093,3982,0,-0.322292,-0.12579,-10.9823,3982,-7841,0.34376,-0.00312,-0.04168,-10182,5525.26,30.69
